{"type": "FeatureCollection", "id": "http://www.github.com/sparqlunicorn#Pencil_collection", "name": "Pencil Instances Collection", "features": [{"type": "Feature", "id": "http://www.github.com/sparqlunicorn#42897bc2-5707-42ff-8f01-b6170d542c6c", "name": "42897bc2-5707-42ff-8f01-b6170d542c6c (suni:42897bc2-5707-42ff-8f01-b6170d542c6c)", "dateprops": [], "properties": {}, "geometry": {"type": "Point", "coordinates": [20.0278933, 63.8801272]}}, {"type": "Feature", "id": "http://www.github.com/sparqlunicorn#323d52f6-0ef2-41c3-a89e-dda98053ce1c", "name": "323d52f6-0ef2-41c3-a89e-dda98053ce1c (suni:323d52f6-0ef2-41c3-a89e-dda98053ce1c)", "dateprops": [], "properties": {}, "geometry": {"type": "Point", "coordinates": [20.0287745, 63.8791403]}}, {"type": "Feature", "id": "http://www.github.com/sparqlunicorn#a0283553-5bf3-4d5e-8438-1dbfbd55f352", "name": "a0283553-5bf3-4d5e-8438-1dbfbd55f352 (suni:a0283553-5bf3-4d5e-8438-1dbfbd55f352)", "dateprops": [], "properties": {}, "geometry": {"type": "Point", "coordinates": [20.0236719, 63.8804781]}}, {"type": "Feature", "id": "http://www.github.com/sparqlunicorn#c336744b-5e45-446b-ab1a-5c61031669ed", "name": "c336744b-5e45-446b-ab1a-5c61031669ed (suni:c336744b-5e45-446b-ab1a-5c61031669ed)", "dateprops": [], "properties": {}, "geometry": {"type": "Point", "coordinates": [20.0289394, 63.8796768]}}, {"type": "Feature", "id": "http://www.github.com/sparqlunicorn#ef66850a-2651-4d2b-bcfb-c37803346e55", "name": "ef66850a-2651-4d2b-bcfb-c37803346e55 (suni:ef66850a-2651-4d2b-bcfb-c37803346e55)", "dateprops": [], "properties": {}, "geometry": {"type": "Point", "coordinates": [20.0249924, 63.88102]}}, {"type": "Feature", "id": "http://www.github.com/sparqlunicorn#28fa130c-4c84-4817-8b2e-855128e2b44e", "name": "28fa130c-4c84-4817-8b2e-855128e2b44e (suni:28fa130c-4c84-4817-8b2e-855128e2b44e)", "dateprops": [], "properties": {}, "geometry": {"type": "Point", "coordinates": [20.0241358, 63.8801578]}}, {"type": "Feature", "id": "http://www.github.com/sparqlunicorn#bdde5c6c-a670-4d6c-84c9-9a62d1ba9c2f", "name": "bdde5c6c-a670-4d6c-84c9-9a62d1ba9c2f (suni:bdde5c6c-a670-4d6c-84c9-9a62d1ba9c2f)", "dateprops": [], "properties": {}, "geometry": {"type": "Point", "coordinates": [20.0240914, 63.8791744]}}, {"type": "Feature", "id": "http://www.github.com/sparqlunicorn#37678450-1c30-4756-b89a-75c4021bcefe", "name": "37678450-1c30-4756-b89a-75c4021bcefe (suni:37678450-1c30-4756-b89a-75c4021bcefe)", "dateprops": [], "properties": {}, "geometry": {"type": "Point", "coordinates": [20.0258682, 63.8805585]}}], "numberMatched": 8, "numberReturned": 8, "bbox": [20.0236719, 63.8791403, 20.0289394, 63.88102], "crs": "http://www.opengis.net/def/crs/EPSG/0/4326"}