{"type": "FeatureCollection", "id": "http://www.github.com/sparqlunicorn#LingonberryJar_collection", "name": "LingonberryJar Instances Collection", "features": [{"type": "Feature", "id": "http://www.github.com/sparqlunicorn#782b5a2d-d383-4856-93eb-e974c77df325", "name": "782b5a2d-d383-4856-93eb-e974c77df325 (suni:782b5a2d-d383-4856-93eb-e974c77df325)", "dateprops": [], "properties": {}, "geometry": {"type": "Point", "coordinates": [20.0251562, 63.8801181]}}, {"type": "Feature", "id": "http://www.github.com/sparqlunicorn#a67d29e2-adec-404e-83e4-1db08e6eedaf", "name": "a67d29e2-adec-404e-83e4-1db08e6eedaf (suni:a67d29e2-adec-404e-83e4-1db08e6eedaf)", "dateprops": [], "properties": {}, "geometry": {"type": "Point", "coordinates": [20.0291964, 63.8795754]}}, {"type": "Feature", "id": "http://www.github.com/sparqlunicorn#3563f2d3-e971-4dc3-8501-5cc745ce5201", "name": "3563f2d3-e971-4dc3-8501-5cc745ce5201 (suni:3563f2d3-e971-4dc3-8501-5cc745ce5201)", "dateprops": [], "properties": {}, "geometry": {"type": "Point", "coordinates": [20.0238529, 63.8795601]}}, {"type": "Feature", "id": "http://www.github.com/sparqlunicorn#9cb0f3f8-c1c8-4c16-bbcd-4d8b45e051fa", "name": "9cb0f3f8-c1c8-4c16-bbcd-4d8b45e051fa (suni:9cb0f3f8-c1c8-4c16-bbcd-4d8b45e051fa)", "dateprops": [], "properties": {}, "geometry": {"type": "Point", "coordinates": [20.0282133, 63.8795879]}}, {"type": "Feature", "id": "http://www.github.com/sparqlunicorn#52b852f9-1d33-45bf-b2f6-4d3c2505870f", "name": "52b852f9-1d33-45bf-b2f6-4d3c2505870f (suni:52b852f9-1d33-45bf-b2f6-4d3c2505870f)", "dateprops": [], "properties": {}, "geometry": {"type": "Point", "coordinates": [20.0290521, 63.8811164]}}, {"type": "Feature", "id": "http://www.github.com/sparqlunicorn#dfcca23a-f573-a4b1-f20d-52597dadffc9", "name": "dfcca23a-f573-a4b1-f20d-52597dadffc9 (suni:dfcca23a-f573-a4b1-f20d-52597dadffc9)", "dateprops": [], "properties": {}, "geometry": {"type": "Point", "coordinates": [20.02513, 63.8804913]}}, {"type": "Feature", "id": "http://www.github.com/sparqlunicorn#43367b68-fbe1-a3c3-2bd8-78f476093f69", "name": "43367b68-fbe1-a3c3-2bd8-78f476093f69 (suni:43367b68-fbe1-a3c3-2bd8-78f476093f69)", "dateprops": [], "properties": {}, "geometry": {"type": "Point", "coordinates": [20.0239724, 63.8809207]}}, {"type": "Feature", "id": "http://www.github.com/sparqlunicorn#3413903c-a458-8422-3997-434b1071b02b", "name": "3413903c-a458-8422-3997-434b1071b02b (suni:3413903c-a458-8422-3997-434b1071b02b)", "dateprops": [], "properties": {}, "geometry": {"type": "Point", "coordinates": [20.0290676, 63.8795764]}}, {"type": "Feature", "id": "http://www.github.com/sparqlunicorn#866bd24f-ca66-4f1f-918f-6f01d4e65bd4", "name": "866bd24f-ca66-4f1f-918f-6f01d4e65bd4 (suni:866bd24f-ca66-4f1f-918f-6f01d4e65bd4)", "dateprops": [], "properties": {}, "geometry": {"type": "Point", "coordinates": [20.0268909, 63.8810189]}}], "numberMatched": 9, "numberReturned": 9, "bbox": [20.0238529, 63.8795601, 20.0291964, 63.8811164], "crs": "http://www.opengis.net/def/crs/EPSG/0/4326"}